[
    {
        "company": "新疆交通投资(集团)有限责任公司阿克苏分公司",
        "lng": "80.245092",
        "lat": "41.17825",
        "adcode": 652900,
        "buMenCode": "10911",
        "machineRooms": [
            {
                "name": "阿克苏东主线收费站",
                "lng": "80.354838",
                "lat": "41.261081"
            },
            {
                "name": "阿恰匝道收费站",
                "lng": "79.315797",
                "lat": "40.522938"
            },
            {
                "name": "红旗坡匝道收费站",
                "lng": "80.366317",
                "lat": "41.279567"
            },
            {
                "name": "佳木镇匝道收费站",
                "lng": "80.514431",
                "lat": "41.358285"
            },
            {
                "name": "库车收费站",
                "lng": "83.317541",
                "lat": "41.76004"
            },
            {
                "name": "启浪匝道收费站",
                "lng": "79.751854",
                "lat": "40.638537"
            },
            {
                "name": "沙井子匝道收费站",
                "lng": "80.966243",
                "lat": "40.639098"
            },
            {
                "name": "沙井子主线收费站",
                "lng": "79.894537",
                "lat": "40.734352"
            },
            {
                "name": "温宿工业园匝道收费站",
                "lng": "80.684761",
                "lat": "41.393307"
            },
            {
                "name": "温宿匝道收费站",
                "lng": "80.905128",
                "lat": "40.680866"
            },
            {
                "name": "五团匝道收费站",
                "lng": "80.806547",
                "lat": "41.429758"
            },
            {
                "name": "英买力匝道收费站",
                "lng": "81.974152",
                "lat": "41.495433"
            },
            {
                "name": "新和主线收费站",
                "lng": "82.717356",
                "lat": "41.686083"
            },
            {
                "name": "玉尔滚匝道收费站",
                "lng": "80.933169",
                "lat": "41.444052"
            },
            {
                "name": "新和西匝道收费站",
                "lng": "82.250984",
                "lat": "41.535589"
            },
            {
                "name": "新和东收费站",
                "lng": "82.684768",
                "lat": "41.686161"
            },
            {
                "name": "新和匝道收费站",
                "lng": "82.589017",
                "lat": "41.673259"
            }
        ]
    },
    {
        "company": "新疆交通投资(集团)有限责任公司阿勒泰分公司",
        "lng": "88.138899",
        "lat": "47.819282",
        "adcode": 654300,
        "buMenCode": "10903",
        "camera": {"x": -2.8610291670995096, "y": 4.949435347366231, "z": 8.201359184629748},
        "target": {"x": -2.579971318513905, "y": -0.9085791206514919, "z": 0.5148674160271314},
        "sensorDevice": {
            "电量仪": 1,
            "红外探测器": 1,
            "温湿度传感器": 0,
            "浸水检测器": 1,
            "UPS": 1,
            "烟雾探测器": 1
        },
        "machineRooms": [
            {
                "name": "187团匝道收费站",
                "lng": "87.893554",
                "lat": "47.281082"
            },
            {
                "name": "阿尔达匝道收费站",
                "lng": "87.70833",
                "lat": "47.1822"
            },
            {
                "name": "阿勒泰主线收费站",
                "lng": "88.161361",
                "lat": "47.717447"
            },
            {
                "name": "巴音托海匝道收费站",
                "lng": "86.508767",
                "lat": "46.937439"
            },
            {
                "name": "北屯匝道收费站",
                "lng": "87.955979",
                "lat": "47.330749"
            },
            {
                "name": "丰庆湖匝道收费站",
                "lng": "87.783705",
                "lat": "47.239273"
            },
            {
                "name": "福海渔场匝道收费站",
                "lng": "87.22456",
                "lat": "47.028232"
            },
            {
                "name": "福海匝道收费站",
                "lng": "87.60236",
                "lat": "47.099013"
            },
            {
                "name": "富蕴匝道收费站",
                "lng": "89.567599",
                "lat": "46.763922"
            },
            {
                "name": "和什托洛盖匝道收费站",
                "lng": "86.044801",
                "lat": "46.518816"
            },
            {
                "name": "喀拉通克匝道收费站",
                "lng": "89.618419",
                "lat": "46.723932"
            },
            {
                "name": "恰库尔图匝道收费站",
                "lng": "89.557761",
                "lat": "46.309245"
            },
            {
                "name": "切尔克齐匝道收费站",
                "lng": "88.014712",
                "lat": "47.417888"
            },
            {
                "name": "塔斯塔克匝道收费站",
                "lng": "88.029549",
                "lat": "47.551602"
            },
            {
                "name": "乌图布拉克匝道收费站",
                "lng": "86.465461",
                "lat": "46.937149"
            }
        ]
    },
    {
        "company": "新疆交通投资(集团)有限责任公司阿图什分公司",
        "lng": "74.972719",
        "lat": "39.651257",
        "adcode": 652900,
        "buMenCode": "10912",
        "camera": {"x": -2.8610291670995096, "y": 4.949435347366231, "z": 8.201359184629748},
        "target": {"x": -2.579971318513905, "y": -0.9085791206514919, "z": 0.5148674160271314},
        "sensorDevice": {
            "电量仪": 0,
            "红外探测器": 1,
            "温湿度传感器": 1,
            "浸水检测器": 1,
            "UPS": 0,
            "烟雾探测器": 1
        },
        "machineRooms": [
            {
                "name": "阿克玛热收费站",
                "lng": "75.900541",
                "lat": "39.656348"
            },
            {
                "name": "阿图什东匝道收费站",
                "lng": "76.195343",
                "lat": "39.745092"
            },
            {
                "name": "阿图什西匝道收费站",
                "lng": "76.155425",
                "lat": "39.724981"
            },
            {
                "name": "阿扎克匝道收费站",
                "lng": "76.061094",
                "lat": "39.676401"
            },
            {
                "name": "格达良匝道收费站",
                "lng": "76.646761",
                "lat": "39.848795"
            },
            {
                "name": "康苏主线收费站",
                "lng": "75.016633",
                "lat": "39.759704"
            },
            {
                "name": "上阿图什主线收费站",
                "lng": "76.195343",
                "lat": "39.745092"
            },
            {
                "name": "塔库提收费站",
                "lng": "75.972705",
                "lat": "39.651817"
            },
            {
                "name": "乌恰匝道收费站",
                "lng": "75.950492",
                "lat": "39.621969"
            }
        ]
    },
    {
        "company": "新疆交通投资(集团)有限责任公司博乐分公司",
        "lng": "82.074833",
        "lat": "44.890052",
        "adcode": 652700,
        "buMenCode": "10904",
        "camera": {"x": -2.8610291670995096, "y": 4.949435347366231, "z": 8.201359184629748},
        "target": {"x": -2.579971318513905, "y": -0.9085791206514919, "z": 0.5148674160271314},
        "machineRooms": [
            {
                "name": "八十三团互通匝道收费站",
                "lng": "82.624712",
                "lat": "44.535907"
            },
            {
                "name": "博乐岔口互通匝道收费站",
                "lng": "82.086669",
                "lat": "44.641032"
            },
            {
                "name": "大河沿子互通匝道收费站",
                "lng": "82.371014",
                "lat": "44.533803"
            },
            {
                "name": "精河敖包互通匝道收费站",
                "lng": "83.022375",
                "lat": "44.634416"
            },
            {
                "name": "精河互通匝道收费站",
                "lng": "82.904722",
                "lat": "44.595036"
            },
            {
                "name": "沙泉子互通匝道收费站",
                "lng": "83.25297",
                "lat": "44.618173"
            },
            {
                "name": "托托互通匝道收费站",
                "lng": "83.578872",
                "lat": "44.542324"
            },
            {
                "name": "五台互通匝道收费站",
                "lng": "82.07608",
                "lat": "44.636475"
            }
        ]
    },
    {
        "company": "新疆交通投资(集团)有限责任公司昌吉分公司",
        "lng": "87.275873",
        "lat": "43.956345",
        "adcode": 652300,
        "buMenCode": "10906",
        "sensorDevice": {
            "电量仪": 0,
            "红外探测器": 4,
            "温湿度传感器": 4,
            "浸水检测器": 4,
            "UPS": 0,
            "烟雾探测器": 4
        },
        "machineRooms": [
            {
                "name": "阿苇滩匝道收费站",
                "lng": "87.172625",
                "lat": "43.989109"
            },
            {
                "name": "博斯坦匝道收费站",
                "lng": "90.636344",
                "lat": "43.804117"
            },
            {
                "name": "昌吉东匝道收费站",
                "lng": "87.276278",
                "lat": "43.956398"
            },
            {
                "name": "昌吉西匝道收费站",
                "lng": "87.218326",
                "lat": "43.959749"
            },
            {
                "name": "大浪沙匝道收费站",
                "lng": "90.895232",
                "lat": "43.75697"
            },
            {
                "name": "阜康收费站",
                "lng": "87.975933",
                "lat": "44.1453"
            },
            {
                "name": "甘河子匝道收费站",
                "lng": "88.371305",
                "lat": "44.130556"
            },
            {
                "name": "高新区匝道收费站",
                "lng": "87.034167",
                "lat": "44.075735"
            },
            {
                "name": "红旗农场匝道收费站",
                "lng": "88.823577",
                "lat": "44.375015"
            },
            {
                "name": "呼图壁匝道收费站",
                "lng": "86.906465",
                "lat": "44.141208"
            },
            {
                "name": "火烧山匝道收费站",
                "lng": "89.032538",
                "lat": "44.891339"
            },
            {
                "name": "吉木萨尔匝道收费站",
                "lng": "89.181731",
                "lat": "43.978458"
            },
            {
                "name": "老奇台匝道收费站",
                "lng": "89.957981",
                "lat": "43.927942"
            },
            {
                "name": "木垒匝道收费站",
                "lng": "90.326809",
                "lat": "43.907195"
            },
            {
                "name": "南泉子收费站",
                "lng": "88.480605",
                "lat": "44.107183"
            },
            {
                "name": "奇台匝道收费站",
                "lng": "89.571317",
                "lat": "43.920854"
            },
            {
                "name": "泉子街匝道收费站",
                "lng": "89.242005",
                "lat": "43.980995"
            },
            {
                "name": "三台油库匝道收费站",
                "lng": "88.72103",
                "lat": "44.237383"
            },
            {
                "name": "三台匝道收费站",
                "lng": "88.897348",
                "lat": "44.058016"
            },
            {
                "name": "沙门子匝道收费站",
                "lng": "85.316176",
                "lat": "44.924979"
            },
            {
                "name": "上户沟匝道收费站",
                "lng": "88.228209",
                "lat": "44.137367"
            },
            {
                "name": "双涝坝匝道收费站",
                "lng": "90.075927",
                "lat": "43.944297"
            },
            {
                "name": "天池匝道收费站",
                "lng": "88.053396",
                "lat": "44.140962"
            },
            {
                "name": "五彩湾匝道收费站",
                "lng": "88.864695",
                "lat": "44.80234"
            },
            {
                "name": "五工梁匝道收费站",
                "lng": "88.159155",
                "lat": "44.13857"
            },
            {
                "name": "五工台匝道收费站",
                "lng": "86.702692",
                "lat": "44.191358"
            },
            {
                "name": "小黄山收费站",
                "lng": "88.638052",
                "lat": "44.10653"
            },
            {
                "name": "中心团场匝道收费站",
                "lng": "89.788515",
                "lat": "43.902505"
            },
            {
                "name": "准东基地匝道收费站",
                "lng": "87.861573",
                "lat": "44.133371"
            },
            {
                "name": "滋泥泉子匝道收费站",
                "lng": "88.723299",
                "lat": "44.154477"
            }
        ]
    },
    {
        "company": "新疆交通投资(集团)有限责任公司哈密分公司",
        "lng": "93.5243",
        "lat": "42.892358",
        "adcode": 650500,
        "buMenCode": "10909",
        "camera": {"x": -2.8610291670995096, "y": 4.949435347366231, "z": 8.201359184629748},
        "target": {"x": -2.579971318513905, "y": -0.9085791206514919, "z": 0.5148674160271314},
        "machineRooms": [
            {
                "name": "白山泉匝道收费站",
                "lng": "94.753904",
                "lat": "41.895579"
            },
            {
                "name": "白山泉主线收费站",
                "lng": "95.888658",
                "lat": "42.150287"
            },
            {
                "name": "二堡收费站",
                "lng": "93.169131",
                "lat": "43.021056"
            },
            {
                "name": "工业园匝道收费站",
                "lng": "94.289377",
                "lat": "42.512236"
            },
            {
                "name": "镜儿泉匝道收费站",
                "lng": "95.448723",
                "lat": "42.393286"
            },
            {
                "name": "骆驼圈子收费站",
                "lng": "94.24604",
                "lat": "42.522643"
            },
            {
                "name": "星星峡收费站",
                "lng": "94.165908",
                "lat": "42.550387"
            },
            {
                "name": "烟墩收费站",
                "lng": "94.225747",
                "lat": "42.304078"
            },
            {
                "name": "一碗泉收费站",
                "lng": "92.13198",
                "lat": "43.38569"
            }
        ]
    },
    {
        "company": "新疆交通投资(集团)有限责任公司和田分公司",
        "lng": "82.734323",
        "lat": "36.99935",
        "adcode": 653200,
        "buMenCode": "10914",
        "camera": {"x": -2.8610291670995096, "y": 4.949435347366231, "z": 8.201359184629748},
        "target": {"x": -2.579971318513905, "y": -0.9085791206514919, "z": 0.5148674160271314},
        "machineRooms": [
            {
                "name": "和田东收费站",
                "lng": "79.956268",
                "lat": "36.987536"
            },
            {
                "name": "和田收费站",
                "lng": "79.798584",
                "lat": "37.026728"
            },
            {
                "name": "和田西收费站",
                "lng": "79.745147",
                "lat": "37.034404"
            },
            {
                "name": "洛浦东收费站",
                "lng": "80.336973",
                "lat": "37.005275"
            },
            {
                "name": "洛浦收费站",
                "lng": "80.193821",
                "lat": "36.995405"
            },
            {
                "name": "墨玉主线收费站",
                "lng": "79.625251",
                "lat": "37.096237"
            }
        ]
    },
    {
        "company": "新疆交通投资(集团)有限责任公司喀什分公司",
        "lng": "77.16",
        "lat": "38.51",
        "adcode": 653100,
        "buMenCode": "10913",
        "camera": {"x": -2.8610291670995096, "y": 4.949435347366231, "z": 8.201359184629748},
        "target": {"x": -2.579971318513905, "y": -0.9085791206514919, "z": 0.5148674160271314},
        "machineRooms": [
            {
                "name": "阿克喀什收费站",
                "lng": "76.330219",
                "lat": "39.514794"
            },
            {
                "name": "阿克萨克马热勒收费站",
                "lng": "78.175543",
                "lat": "39.587723"
            },
            {
                "name": "阿瓦提收费站",
                "lng": "77.548621",
                "lat": "39.076998"
            },
            {
                "name": "艾力西湖收费站",
                "lng": "77.320155",
                "lat": "38.72967"
            },
            {
                "name": "巴楚收费站",
                "lng": "78.497869",
                "lat": "39.802747"
            },
            {
                "name": "大山口收费站",
                "lng": "77.069676",
                "lat": "39.837059"
            },
            {
                "name": "伽师总场收费站",
                "lng": "77.521307",
                "lat": "39.821671"
            },
            {
                "name": "江巴孜收费站",
                "lng": "76.737413",
                "lat": "39.412656"
            },
            {
                "name": "喀什北主线收费站",
                "lng": "75.996807",
                "lat": "39.565543"
            },
            {
                "name": "喀什主线收费站",
                "lng": "76.165738",
                "lat": "39.506612"
            },
            {
                "name": "兰干山收费站",
                "lng": "76.091826",
                "lat": "39.587031"
            },
            {
                "name": "麦盖提主线收费站",
                "lng": "77.532329",
                "lat": "38.960526"
            },
            {
                "name": "牌楼收费站",
                "lng": "77.456433",
                "lat": "38.987827"
            },
            {
                "name": "三岔口收费站",
                "lng": "78.28873",
                "lat": "39.931166"
            },
            {
                "name": "三道班收费站",
                "lng": "78.129569",
                "lat": "39.908665"
            },
            {
                "name": "色力布亚收费站",
                "lng": "77.693442",
                "lat": "39.300639"
            },
            {
                "name": "莎车北收费站",
                "lng": "77.190207",
                "lat": "38.494147"
            },
            {
                "name": "莎车西收费站",
                "lng": "77.150621",
                "lat": "38.41942"
            },
            {
                "name": "深喀大道收费站",
                "lng": "76.174304",
                "lat": "39.480429"
            },
            {
                "name": "疏勒东收费站",
                "lng": "76.166093",
                "lat": "39.417374"
            },
            {
                "name": "四十二团收费站",
                "lng": "77.064593",
                "lat": "39.136735"
            },
            {
                "name": "塔吉克收费站",
                "lng": "77.284672",
                "lat": "39.04201"
            },
            {
                "name": "西克尔收费站",
                "lng": "77.427433",
                "lat": "39.82219"
            },
            {
                "name": "夏普吐勒收费站",
                "lng": "76.59448",
                "lat": "39.466044"
            },
            {
                "name": "一间房收费站",
                "lng": "78.824843",
                "lat": "40.155969"
            },
            {
                "name": "岳普湖收费站",
                "lng": "76.837392",
                "lat": "39.249814"
            }
        ]
    },
    {
        "company": "新疆交通投资(集团)有限责任公司克拉玛依分公司",
        "lng": "84.910888",
        "lat": "45.568319",
        "adcode": 650200,
        "buMenCode": "10905",
        "camera": {"x": -2.8610291670995096, "y": 4.949435347366231, "z": 8.201359184629748},
        "target": {"x": -2.579971318513905, "y": -0.9085791206514919, "z": 0.5148674160271314},
        "sensorDevice": {
            "电量仪": 2,
            "红外探测器": 3,
            "温湿度传感器": 4,
            "浸水检测器": 3,
            "UPS": 3,
            "烟雾探测器": 4
        },
        "machineRooms": [
            {
                "name": "121团匝道收费站",
                "lng": "85.601616",
                "lat": "44.785454"
            },
            {
                "name": "147团匝道收费站",
                "lng": "86.060822",
                "lat": "44.583749"
            },
            {
                "name": "白碱滩匝道收费站",
                "lng": "85.10899",
                "lat": "45.705108"
            },
            {
                "name": "百口泉匝道收费站",
                "lng": "85.359102",
                "lat": "45.967256"
            },
            {
                "name": "大丰匝道收费站",
                "lng": "86.59578",
                "lat": "44.251949"
            },
            {
                "name": "古海匝道收费站",
                "lng": "85.03569",
                "lat": "45.316558"
            },
            {
                "name": "克拉玛依（克南）匝道收费站",
                "lng": "84.80028",
                "lat": "45.332596"
            },
            {
                "name": "克拉玛依匝道收费站",
                "lng": "84.808989",
                "lat": "45.36161"
            },
            {
                "name": "克西匝道收费站",
                "lng": "84.839608",
                "lat": "45.631629"
            },
            {
                "name": "柳毛湾匝道收费站",
                "lng": "85.916427",
                "lat": "44.649424"
            },
            {
                "name": "沙门子匝道收费站",
                "lng": "85.316176",
                "lat": "44.924979"
            },
            {
                "name": "乌尔禾匝道收费站",
                "lng": "85.642863",
                "lat": "46.118765"
            },
            {
                "name": "五工台主线收费站",
                "lng": "86.702692",
                "lat": "44.191358"
            },
            {
                "name": "西郊匝道收费站",
                "lng": "84.798653",
                "lat": "45.531362"
            },
            {
                "name": "小拐东匝道收费站",
                "lng": "85.101435",
                "lat": "45.168086"
            },
            {
                "name": "小拐收费站",
                "lng": "85.018255",
                "lat": "45.364011"
            },
            {
                "name": "新湖南匝道收费站",
                "lng": "86.345501",
                "lat": "44.431052"
            }
        ]
    },
    {
        "company": "新疆交通投资(集团)有限责任公司库尔勒分公司",
        "lng": "86.219626",
        "lat": "41.787923",
        "adcode": 652800,
        "buMenCode": "10910",
        "camera": {"x": -2.8610291670995096, "y": 4.949435347366231, "z": 8.201359184629748},
        "target": {"x": -2.579971318513905, "y": -0.9085791206514919, "z": 0.5148674160271314},
        "machineRooms": [
            {
                "name": "二十七团收费站",
                "lng": "86.516429",
                "lat": "42.013398"
            },
            {
                "name": "高桥收费站",
                "lng": "86.726667",
                "lat": "42.279869"
            },
            {
                "name": "和硕主线收费站",
                "lng": "86.870745",
                "lat": "42.303038"
            },
            {
                "name": "库尔楚收费站",
                "lng": "85.377373",
                "lat": "41.975905"
            },
            {
                "name": "库尔勒收费站",
                "lng": "86.219442",
                "lat": "41.787348"
            },
            {
                "name": "塔什店收费站",
                "lng": "86.294117",
                "lat": "41.832998"
            },
            {
                "name": "焉耆收费站",
                "lng": "86.562632",
                "lat": "42.085414"
            },
            {
                "name": "紫泥泉收费站",
                "lng": "86.347908",
                "lat": "41.871143"
            }
        ]
    },
    {
        "company": "新疆交通投资(集团)有限责任公司奎屯分公司",
        "lng": "84.920644",
        "lat": "44.402789",
        "adcode": 654003,
        "buMenCode": "10915",
        "camera": {"x": -2.8610291670995096, "y": 4.949435347366231, "z": 8.201359184629748},
        "target": {"x": -2.579971318513905, "y": -0.9085791206514919, "z": 0.5148674160271314},
        "sensorDevice": {
            "电量仪": 1,
            "红外探测器": 1,
            "温湿度传感器": 1,
            "浸水检测器": 1,
            "UPS": 1,
            "烟雾探测器": 1
        },
        "machineRooms": [
            {
                "name": "安集海匝道收费站",
                "lng": "85.373819",
                "lat": "44.348401"
            },
            {
                "name": "高泉互通匝道收费站",
                "lng": "84.093233",
                "lat": "44.389708"
            },
            {
                "name": "古尔图互通匝道收费站",
                "lng": "83.869113",
                "lat": "44.472579"
            },
            {
                "name": "红星农场互通匝道收费站",
                "lng": "84.323121",
                "lat": "44.378622"
            },
            {
                "name": "奎东匝道收费站",
                "lng": "85.04565",
                "lat": "44.373766"
            },
            {
                "name": "奎屯收费站",
                "lng": "84.92157",
                "lat": "44.40317"
            },
            {
                "name": "奎屯西匝道收费站",
                "lng": "84.840887",
                "lat": "44.410864"
            },
            {
                "name": "玛纳斯匝道收费站",
                "lng": "86.210118",
                "lat": "44.268004"
            },
            {
                "name": "沙湾东匝道收费站",
                "lng": "85.652456",
                "lat": "44.303439"
            },
            {
                "name": "沙湾西匝道收费站",
                "lng": "85.571253",
                "lat": "44.339988"
            },
            {
                "name": "石河子西匝道收费站",
                "lng": "85.995587",
                "lat": "44.251176"
            },
            {
                "name": "石河子匝道收费站",
                "lng": "86.12554",
                "lat": "44.288039"
            },
            {
                "name": "塔西河匝道收费站",
                "lng": "86.305936",
                "lat": "44.245172"
            },
            {
                "name": "天北主线收费站",
                "lng": "84.883961",
                "lat": "44.477653"
            },
            {
                "name": "乌兰乌苏匝道收费站",
                "lng": "85.85013",
                "lat": "44.282436"
            },
            {
                "name": "乌苏东互通匝道收费站",
                "lng": "84.751955",
                "lat": "44.411201"
            },
            {
                "name": "乌苏主线临时收费站",
                "lng": "85.85013",
                "lat": "44.282436"
            },
            {
                "name": "西大沟互通匝道收费站",
                "lng": "84.637379",
                "lat": "44.391043"
            }
        ]
    },
    {
        "company": "新疆交通投资(集团)有限责任公司塔城分公司",
        "lng": "82.969345",
        "lat": "46.669941",
        "adcode": 654200,
        "buMenCode": "10902",
        "camera": {"x": -2.8610291670995096, "y": 4.949435347366231, "z": 8.201359184629748},
        "target": {"x": -2.579971318513905, "y": -0.9085791206514919, "z": 0.5148674160271314},
        "machineRooms": [
            {
                "name": "额敏东收费站",
                "lng": "83.871933",
                "lat": "46.335322"
            },
            {
                "name": "额敏收费站",
                "lng": "83.583849",
                "lat": "46.427584"
            },
            {
                "name": "哈图收费站",
                "lng": "84.68997",
                "lat": "45.884551"
            },
            {
                "name": "恰夏收费站",
                "lng": "83.452772",
                "lat": "46.612957"
            },
            {
                "name": "塔城收费站",
                "lng": "82.96878",
                "lat": "46.669283"
            },
            {
                "name": "铁厂沟收费站",
                "lng": "87.802077",
                "lat": "43.977589"
            },
            {
                "name": "团结农场收费站",
                "lng": "83.41973",
                "lat": "46.475426"
            },
            {
                "name": "乌雪特收费站",
                "lng": "84.257115",
                "lat": "46.215693"
            }
        ]
    },
    {
        "company": "新疆交通投资(集团)有限责任公司吐鲁番分公司",
        "lng": "88.587065",
        "lat": "42.934513",
        "adcode": 650400,
        "buMenCode": "10908",
        "camera": {"x": -2.8610291670995096, "y": 4.949435347366231, "z": 8.201359184629748},
        "target": {"x": -2.579971318513905, "y": -0.9085791206514919, "z": 0.5148674160271314},
        "machineRooms": [
            {
                "name": "大河沿匝道收费站",
                "lng": "88.8114",
                "lat": "43.07139"
            },
            {
                "name": "库米什收费站",
                "lng": "88.105009",
                "lat": "42.263074"
            },
            {
                "name": "葡萄沟匝道收费站",
                "lng": "89.320148",
                "lat": "43.058661"
            },
            {
                "name": "鄯善东收费站",
                "lng": "90.747898",
                "lat": "43.056135"
            },
            {
                "name": "吐鲁番收费站",
                "lng": "89.149759",
                "lat": "43.060586"
            },
            {
                "name": "吐鲁番匝道收费站",
                "lng": "89.122619",
                "lat": "43.006109"
            },
            {
                "name": "吐峪沟匝道收费站",
                "lng": "89.770539",
                "lat": "42.927486"
            },
            {
                "name": "吐峪沟主线收费站",
                "lng": "89.804829",
                "lat": "42.918828"
            },
            {
                "name": "小草湖主线收费站",
                "lng": "88.55756",
                "lat": "43.060553"
            }
        ]
    },
    {
        "company": "新疆交通投资(集团)有限责任公司乌鲁木齐分公司",
        "lng": "87.763712",
        "lat": "43.815338",
        "adcode": 650100,
        "buMenCode": "10907",
        "camera": {"x": -2.8610291670995096, "y": 4.949435347366231, "z": 8.201359184629748},
        "target": {"x": -2.579971318513905, "y": -0.9085791206514919, "z": 0.5148674160271314},
        "sensorDevice": {
            "电量仪": 8,
            "红外探测器": 8,
            "温湿度传感器": 8,
            "浸水检测器": 8,
            "UPS": 6,
            "烟雾探测器": 8
        },
        "machineRooms": [
            {
                "name": "柴窝堡匝道收费站",
                "lng": "87.887902",
                "lat": "43.551261"
            },
            {
                "name": "达坂城匝道收费站",
                "lng": "88.342414",
                "lat": "43.329381"
            },
            {
                "name": "二十里店匝道收费站",
                "lng": "88.234923",
                "lat": "43.376812"
            },
            {
                "name": "甘沟匝道收费站",
                "lng": "87.816109",
                "lat": "43.917565"
            },
            {
                "name": "甘泉堡匝道收费站",
                "lng": "87.769277",
                "lat": "44.12488"
            },
            {
                "name": "甘泉堡主线收费站",
                "lng": "87.765453",
                "lat": "44.124863"
            },
            {
                "name": "观园路匝道收费站",
                "lng": "87.763608",
                "lat": "43.815816"
            },
            {
                "name": "芨东匝道收费站",
                "lng": "87.725701",
                "lat": "43.629478"
            },
            {
                "name": "芨南匝道收费站",
                "lng": "87.637891",
                "lat": "43.582188"
            },
            {
                "name": "米东北主线收费站",
                "lng": "87.698009",
                "lat": "44.099873"
            },
            {
                "name": "米东匝道收费站",
                "lng": "87.81515",
                "lat": "44.047018"
            },
            {
                "name": "泊源街匝道收费站",
                "lng": "87.547312",
                "lat": "43.687316"
            },
            {
                "name": "石人子沟匝道收费站",
                "lng": "87.794344",
                "lat": "43.873732"
            },
            {
                "name": "铁厂沟匝道收费站",
                "lng": "87.801951",
                "lat": "43.97722"
            },
            {
                "name": "头屯河主线收费站",
                "lng": "87.293807",
                "lat": "43.947192"
            },
            {
                "name": "乌拉泊北匝道收费站",
                "lng": "87.578633",
                "lat": "43.694764"
            },
            {
                "name": "乌拉泊南匝道收费站",
                "lng": "87.567997",
                "lat": "43.597873"
            },
            {
                "name": "乌拉泊西匝道收费站",
                "lng": "87.538495",
                "lat": "43.67196"
            },
            {
                "name": "乌拉泊西主线收费站",
                "lng": "87.520195",
                "lat": "43.708192"
            },
            {
                "name": "物流园匝道收费站",
                "lng": "87.522101",
                "lat": "43.705364"
            },
            {
                "name": "延安路匝道收费站",
                "lng": "87.685259",
                "lat": "43.734241"
            },
            {
                "name": "盐湖匝道收费站",
                "lng": "88.13002",
                "lat": "43.41247"
            }
        ]
    },
    {
        "company": "新疆交通投资(集团)有限责任公司伊犁分公司",
        "lng": "81.284164",
        "lat": "43.957472",
        "adcode": 654000,
        "buMenCode": "10901",
        "camera": {"x": -2.8610291670995096, "y": 4.949435347366231, "z": 8.201359184629748},
        "target": {"x": -2.579971318513905, "y": -0.9085791206514919, "z": 0.5148674160271314},
        "sensorDevice": {
            "电量仪": 3,
            "红外探测器": 5,
            "温湿度传感器": 5,
            "浸水检测器": 5,
            "UPS": 1,
            "烟雾探测器": 5
        },
        "machineRooms": [
            {
                "name": "阿热勒托别收费站",
                "lng": "83.703067",
                "lat": "43.4463"
            },
            {
                "name": "巴彥岱收费站",
                "lng": "81.224172",
                "lat": "43.98133"
            },
            {
                "name": "达达木图收费站",
                "lng": "81.314339",
                "lat": "43.996056"
            },
            {
                "name": "墩麻扎收费站",
                "lng": "81.748874",
                "lat": "43.862162"
            },
            {
                "name": "果子沟收费站",
                "lng": "80.971409",
                "lat": "44.342066"
            },
            {
                "name": "惠远东收费站",
                "lng": "80.995131",
                "lat": "44.004382"
            },
            {
                "name": "吉林台收费站",
                "lng": "82.842472",
                "lat": "43.832518"
            },
            {
                "name": "喀什河东收费站",
                "lng": "81.915709",
                "lat": "43.748312"
            },
            {
                "name": "喀什河收费站",
                "lng": "81.876224",
                "lat": "43.785481"
            },
            {
                "name": "可克达拉收费站",
                "lng": "81.030754",
                "lat": "43.97039"
            },
            {
                "name": "六十六团收费站",
                "lng": "81.099274",
                "lat": "43.970853"
            },
            {
                "name": "那拉提收费站",
                "lng": "83.998422",
                "lat": "43.36338"
            },
            {
                "name": "尼勒克收费站",
                "lng": "82.240884",
                "lat": "43.623985"
            },
            {
                "name": "潘津收费站",
                "lng": "81.376884",
                "lat": "43.96916"
            },
            {
                "name": "七十二团收费站",
                "lng": "82.935255",
                "lat": "43.574662"
            },
            {
                "name": "萨地克于孜收费站",
                "lng": "81.544674",
                "lat": "43.926366"
            },
            {
                "name": "伊东工业园收费站",
                "lng": "81.747802",
                "lat": "43.866665"
            },
            {
                "name": "伊宁县收费站",
                "lng": "81.454997",
                "lat": "43.9519"
            },
            {
                "name": "则克台收费站",
                "lng": "83.281956",
                "lat": "43.551298"
            },
            {
                "name": "种羊场收费站",
                "lng": "82.583247",
                "lat": "43.592341"
            }
        ]
    },
    {
        "company": "新疆交投阿乌高速公路有限责任公司",
        "shortName": "阿乌高速",
        "lng": "86.03",
        "lat": "43.84",
        "adcode": 650000,
        "buMenCode": "10920",
        "camera": {"x": -2.8610291670995096, "y": 4.949435347366231, "z": 8.201359184629748},
        "target": {"x": -2.579971318513905, "y": -0.9085791206514919, "z": 0.5148674160271314},
        "machineRooms": []
    },
    {
        "company": "新疆交投阿富高速运营管理有限公司",
        "shortName": "阿富高速",
        "lng": "87.894821",
        "lat": "47.279471",
        "adcode": 650000,
        "buMenCode": "10921",
        "camera": {"x": -2.8610291670995096, "y": 4.949435347366231, "z": 8.201359184629748},
        "target": {"x": -2.579971318513905, "y": -0.9085791206514919, "z": 0.5148674160271314},
        "machineRooms": []
    },
    {
        "company": "新疆交投精阿高速运营管理有限公司",
        "shortName": "精阿高速",
        "lng": "82.90",
        "lat": "44.42",
        "adcode": 650000,
        "buMenCode": "10922",
        "camera": {"x": -2.8610291670995096, "y": 4.949435347366231, "z": 8.201359184629748},
        "target": {"x": -2.579971318513905, "y": -0.9085791206514919, "z": 0.5148674160271314},
        "machineRooms": []
    },
    {
        "company": "新疆交投盛塔交通项目管理有限公司",
        "shortName": "盛塔",
        "lng": "84.494174",
        "lat": "46.4",
        "adcode": 650000,
        "buMenCode": "10923",
        "camera": {"x": -2.8610291670995096, "y": 4.949435347366231, "z": 8.201359184629748},
        "target": {"x": -2.579971318513905, "y": -0.9085791206514919, "z": 0.5148674160271314},
        "machineRooms": []
    },
    {
        "company": "新疆交投云塔交通项目管理有限公司",
        "shortName": "云塔",
        "lng": "83.494174",
        "lat": "45.94869",
        "adcode": 650000,
        "buMenCode": "10924",
        "camera": {"x": -2.8610291670995096, "y": 4.949435347366231, "z": 8.201359184629748},
        "target": {"x": -2.579971318513905, "y": -0.9085791206514919, "z": 0.5148674160271314},
        "machineRooms": []
    }
]